[{"ID":"10056","AREA":"板橋區","NAME":"遠東百貨停車場","TYPE":"2","SUMMARY":"立體式建築附設停車空間","ADDRESS":"板橋區中山路一段152號","TEL":"","PAYEX":"小型車計時每小時60元;","SERVICETIME":"0~24時","TW97X":"296882","TW97Y":"2767068","TOTALCAR":"453","TOTALMOTOR":"0","lat":25.010925150026413,"lng":121.4644919656591},{"ID":"10008","AREA":"板橋區","NAME":"府後立體停車場","TYPE":"2","SUMMARY":"立體式多目標附建停車場","ADDRESS":"板橋區府中路32-1、32-2","TEL":"2969-7281","PAYEX":"小型車計時每小時20元;","SERVICETIME":"0~24時","TW97X":"296277","TW97Y":"2767002.5","TOTALCAR":"150","TOTALMOTOR":"0","lat":25.010352411579483,"lng":121.45849577406183},{"ID":"10028","AREA":"板橋區","NAME":"新北市立大觀國民中學停車場","TYPE":"2","SUMMARY":"立體式多目標附建停車場","ADDRESS":"板橋區僑中一街1號地下室","TEL":"22725015#611","PAYEX":"小型車計時每小時20元;小型車月租每月4000元;","SERVICETIME":"0~24時","TW97X":"295269","TW97Y":"2767084","TOTALCAR":"30","TOTALMOTOR":"0","lat":25.01111865471006,"lng":121.44851179026196},{"ID":"10072","AREA":"板橋區","NAME":"香丘停車場","TYPE":"2","SUMMARY":"立體式多目標附建停車場","ADDRESS":"板橋區中山路一段279號","TEL":"8953-8420","PAYEX":"小型車計時每小時30元;小型車月租每月3300元;","SERVICETIME":"0~24時","TW97X":"297449","TW97Y":"2767423","TOTALCAR":"79","TOTALMOTOR":"0","lat":25.014112460390177,"lng":121.47012167604917},{"ID":"10086","AREA":"板橋區","NAME":"遠東資源開發股份有限公司遠東路1號營業所停車場","TYPE":"2","SUMMARY":"立體式建築附設停車空間","ADDRESS":"板橋區遠東路1號地下一層","TEL":"7741-5000#583","PAYEX":"機車計時每小時10元;小型車計時每小時30元;","SERVICETIME":"7:00至23:00","TW97X":"296147","TW97Y":"2765704","TOTALCAR":"75","TOTALMOTOR":"41","lat":24.99863340384279,"lng":121.45716442416744},{"ID":"10091","AREA":"板橋區","NAME":"金板神大樓地下停車場","TYPE":"2","SUMMARY":"立體式建築附設停車空間","ADDRESS":"板橋區南雅東路20-6號B2","TEL":"0932241641；0988018105","PAYEX":"小型車計時每小時30元;小型車月租每月2600元;","SERVICETIME":"15時~24時","TW97X":"295886","TW97Y":"2766560.5","TOTALCAR":"20","TOTALMOTOR":"0","lat":25.00637388957875,"lng":121.45460729486872},{"ID":"10092","AREA":"板橋區","NAME":"高爾富停車場","TYPE":"2","SUMMARY":"平面式臨時路外停車場","ADDRESS":"板橋區遠東路1號後方空地","TEL":"7738-9988","PAYEX":"小型車計時每小時20元;","SERVICETIME":"0~24時","TW97X":"295829.5","TW97Y":"2765664","TOTALCAR":"98","TOTALMOTOR":"0","lat":24.99828191212282,"lng":121.45401779822859},{"ID":"10039","AREA":"板橋區","NAME":"臺北紙廠停車場","TYPE":"1","SUMMARY":"平面式臨時路外停車場","ADDRESS":"板橋區大觀路二段28號","TEL":"2275-1494","PAYEX":"小型車計時每小時20元;小型車月租每月4000元;機車計次每次10元;機車月租每月120元;","SERVICETIME":"0~24時","TW97X":"295054","TW97Y":"2766183.5","TOTALCAR":"210","TOTALMOTOR":"153","lat":25.002995260648294,"lng":121.4463523036643},{"ID":"10041","AREA":"板橋區","NAME":"新北市立中山國民中學附設停車場","TYPE":"2","SUMMARY":"立體式多目標附建停車場","ADDRESS":"板橋區文化路一段188巷56號","TEL":"2250-8250#238","PAYEX":"小型車月租每月1000元;小型車月租每月3000元;機車免費免費;","SERVICETIME":"19~6時","TW97X":"297189","TW97Y":"2767890","TOTALCAR":"101","TOTALMOTOR":"86","lat":25.018336686686773,"lng":121.467561647288},{"ID":"10115","AREA":"板橋區","NAME":"永琦停車場","TYPE":"2","SUMMARY":"平面式都市計畫停車場","ADDRESS":"新北市板橋區北門街與文昌街口","TEL":"89698923","PAYEX":"小型車計時每小時20元;小型車月租每月4000元;","SERVICETIME":"0~24時","TW97X":"296076.2","TW97Y":"2767093","TOTALCAR":"47","TOTALMOTOR":"0","lat":25.011175573026566,"lng":121.45650939045967},{"ID":"10117","AREA":"板橋區","NAME":"Times板橋吳鳳路停車場","TYPE":"2","SUMMARY":"平面式臨時路外停車場","ADDRESS":"新北市板橋區吳鳳路92號旁空地","TEL":"800888924","PAYEX":"小型車計時每小時80元;","SERVICETIME":"0~24時","TW97X":"297136.4","TW97Y":"2769359","TOTALCAR":"11","TOTALMOTOR":"0","lat":25.03160053168104,"lng":121.46709067944488},{"ID":"10079","AREA":"板橋區","NAME":"板信停車場","TYPE":"2","SUMMARY":"平面式臨時路外停車場","ADDRESS":"新北市板橋區信義路與青雲路口","TEL":"0800-021111","PAYEX":"小型車計時每小時30元;機車月租每月300元;小型車月租每月4000元;","SERVICETIME":"0~24時","TW97X":"296505.5","TW97Y":"2764770.5","TOTALCAR":"95","TOTALMOTOR":"95","lat":24.9901947198796,"lng":121.46068446768143},{"ID":"10127","AREA":"板橋區","NAME":"愛買南雅店路外停車場","TYPE":"2","SUMMARY":"平面式臨時路外停車場","ADDRESS":"新北市板橋區貴興路119巷","TEL":"77418000","PAYEX":"小型車計時每小時20元;","SERVICETIME":"9~23時","TW97X":"296048","TW97Y":"2766056","TOTALCAR":"105","TOTALMOTOR":"0","lat":25.001814303855035,"lng":121.45619541956202},{"ID":"10065","AREA":"板橋區","NAME":"中華電信學院第一停車場","TYPE":"2","SUMMARY":"平面式建築附設停車空間","ADDRESS":"板橋區民族路168號","TEL":"29639272","PAYEX":"小型車月租每月2000元;小型車月租每月3500元;","SERVICETIME":"0~24時","TW97X":"297010","TW97Y":"2766786","TOTALCAR":"44","TOTALMOTOR":"0","lat":25.008375267578156,"lng":121.46575051426376},{"ID":"10068","AREA":"板橋區","NAME":"板橋金站停車場","TYPE":"2","SUMMARY":"立體式-機械建築附設停車空間","ADDRESS":"新北市板橋區館前西路6號地下1樓至地下3樓","TEL":"29591800","PAYEX":"小型車計時每小時50元;","SERVICETIME":"0~24時","TW97X":"296341.5","TW97Y":"2766645","TOTALCAR":"43","TOTALMOTOR":"0","lat":25.007122901151412,"lng":121.45912280172618},{"ID":"10064","AREA":"板橋區","NAME":"馥都飯店停車場","TYPE":"2","SUMMARY":"立體式建築附設停車空間","ADDRESS":"新北市板橋區縣民大道1段189號B1~B4","TEL":"29658000","PAYEX":"小型車計時每小時100元;","SERVICETIME":"07~23時","TW97X":"296388.5","TW97Y":"2766847","TOTALCAR":"49","TOTALMOTOR":"0","lat":25.008945135437155,"lng":121.45959522318246},{"ID":"10132","AREA":"板橋區","NAME":"愛買南雅店收費停車場","TYPE":"2","SUMMARY":"立體式建築附設停車空間","ADDRESS":"新北市板橋區貴興路101號","TEL":"800002088","PAYEX":"小型車計時每小時50元;","SERVICETIME":"0~24時","TW97X":"296049.6","TW97Y":"2766152","TOTALCAR":"204","TOTALMOTOR":"153","lat":25.002680952122077,"lng":121.45621447096426},{"ID":"10134","AREA":"板橋區","NAME":"全群停車場","TYPE":"2","SUMMARY":"立體式建築附設停車空間","ADDRESS":"新北市板橋區四維路230巷2號","TEL":"22535566","PAYEX":"小型車計時每小時20元;小型車計次每次100元;小型車月租每月5000元;","SERVICETIME":"0~24時","TW97X":"296839.5","TW97Y":"2768969","TOTALCAR":"61","TOTALMOTOR":"0","lat":25.028088809496055,"lng":121.46413542677209},{"ID":"10069","AREA":"板橋區","NAME":"星聚點板橋站停車場","TYPE":"2","SUMMARY":"立體式建築附設停車空間","ADDRESS":"板橋區中山路一段1號B2","TEL":"29506565","PAYEX":"小型車計時每小時80元;","SERVICETIME":"0~24時","TW97X":"296367.5","TW97Y":"2766678.5","TOTALCAR":"79","TOTALMOTOR":"0","lat":25.00742454653863,"lng":121.4593815119885},{"ID":"10136","AREA":"板橋區","NAME":"仁化收費停車場","TYPE":"2","SUMMARY":"平面式臨時路外停車場","ADDRESS":"新北市板橋區仁化街54號旁","TEL":"22523745","PAYEX":"小型車計時每小時40元;","SERVICETIME":"0~24時","TW97X":"298019.8","TW97Y":"2769392","TOTALCAR":"11","TOTALMOTOR":"0","lat":25.031870688286244,"lng":121.4758455056238},{"ID":"10054","AREA":"板橋區","NAME":"板橋區府中一區、二區、三區平面停車場","TYPE":"2","SUMMARY":"平面式臨時路外停車場","ADDRESS":"新北市板橋區縣民大道、重慶路口","TEL":"2944-1489","PAYEX":"小型車計時每小時100元;小型車月租每月8000元;機車月租每月2000元;機車計次每次60元;","SERVICETIME":"0~24時","TW97X":"296526","TW97Y":"2766952","TOTALCAR":"39","TOTALMOTOR":"81","lat":25.009888867634913,"lng":121.46096101158263},{"ID":"10114","AREA":"板橋區","NAME":"國立臺灣藝術大學停車場","TYPE":"2","SUMMARY":"立體式多目標附建停車場","ADDRESS":"新北市板橋區大觀路一段59號","TEL":"22722181分機1226","PAYEX":"小型車計時每小時20元;","SERVICETIME":"0~24時","TW97X":"295192.8","TW97Y":"2766511","TOTALCAR":"88","TOTALMOTOR":"0","lat":25.005947830995893,"lng":121.44773808656862},{"ID":"10120","AREA":"板橋區","NAME":"台灣聯通府中停車場","TYPE":"2","SUMMARY":"立體式建築附設停車空間","ADDRESS":"新北市板橋區中山路一段104號B1","TEL":"2523-5000","PAYEX":"小型車計時每小時60元;小型車月租每月7000元;","SERVICETIME":"0~24時","TW97X":"296692.7","TW97Y":"2767019","TOTALCAR":"12","TOTALMOTOR":"0","lat":25.010488620401638,"lng":121.46261483228257},{"ID":"10096","AREA":"板橋區","NAME":"Times板橋金門街停車場","TYPE":"2","SUMMARY":"平面式臨時路外停車場","ADDRESS":"新北市板橋區金門街306-2號對面","TEL":"800888924","PAYEX":"小型車計時每小時80元;小型車月租每月8000元;","SERVICETIME":"0~24時","TW97X":"293286.9","TW97Y":"2764212","TOTALCAR":"17","TOTALMOTOR":"0","lat":24.98524779219124,"lng":121.42878418564398},{"ID":"10018","AREA":"板橋區","NAME":"板橋區府中立體停車場","TYPE":"1","SUMMARY":"立體式-塔臺都市計畫停車場","ADDRESS":"板橋區西門街59號","TEL":",2969-8466","PAYEX":"小型車計時每小時20元;小型車計時每小時30元;小型車月租每月3000元;","SERVICETIME":"0~24時","TW97X":"295844","TW97Y":"2767052","TOTALCAR":"158","TOTALMOTOR":"0","lat":25.01081246571601,"lng":121.45420751685619},{"ID":"10004","AREA":"板橋區","NAME":"民生花市停車場","TYPE":"1","SUMMARY":"平面式都市計畫停車場","ADDRESS":"民生路2段200及207號對面","TEL":"02-22559110, 0905007567","PAYEX":"小型車計時每小時30元;小型車月租每月3500元;小型車月租每月2800元;身障車月租每月2000元;","SERVICETIME":"0~24時","TW97X":"297335","TW97Y":"2768249","TOTALCAR":"109","TOTALMOTOR":"0","lat":25.02157320222452,"lng":121.46902053253162},{"ID":"10121","AREA":"板橋區","NAME":"百揚大樓 MEGA TOWEWR 停車場","TYPE":"2","SUMMARY":"立體式-機械建築附設停車空間","ADDRESS":"新北市板橋區新站路18號B2~B4、4~9F","TEL":"77400016","PAYEX":"小型車計時每小時60元;","SERVICETIME":"0~24時","TW97X":"297110.8","TW97Y":"2767353","TOTALCAR":"712","TOTALMOTOR":"0","lat":25.013491051685502,"lng":121.46676851056401},{"ID":"10046","AREA":"板橋區","NAME":"板橋國中地下停車場","TYPE":"1","SUMMARY":"立體式多目標附建停車場","ADDRESS":"板橋區中正路437號B1","TEL":"2965-6235","PAYEX":"小型車計時每小時20元;小型車計時每小時30元;小型車計次每次200元;小型車月租每月3800元;","SERVICETIME":"0~24時","TW97X":"295825","TW97Y":"2768506","TOTALCAR":"100","TOTALMOTOR":"0","lat":25.023939864263852,"lng":121.4540675551831},{"ID":"10016","AREA":"板橋區","NAME":"溪洲公園平面停車場","TYPE":"1","SUMMARY":"平面式臨時路外停車場","ADDRESS":"新北市板橋區滿平街84巷102號對面","TEL":"26759724","PAYEX":"小型車計時每小時20元;小型車計時每小時30元;小型車月租每月2500元;","SERVICETIME":"0~24時","TW97X":"293188.5","TW97Y":"2764263","TOTALCAR":"60","TOTALMOTOR":"0","lat":24.98571103271346,"lng":121.427811085917},{"ID":"10022","AREA":"板橋區","NAME":"435藝文特區平面停車場","TYPE":"1","SUMMARY":"平面式臨時路外停車場","ADDRESS":"新北市板橋區中正路435號","TEL":"26759724","PAYEX":"大型車計時每小時40元;大型車計時每小時60元;小型車計時每小時20元;小型車計時每小時30元;大型車月租每月3600元;小型車月租每月2400元;","SERVICETIME":"0~24時","TW97X":"295619","TW97Y":"2768421","TOTALCAR":"21","TOTALMOTOR":"5","lat":25.023178698713544,"lng":121.45202359619267},{"ID":"10015","AREA":"板橋區","NAME":"崑崙公園平面停車場","TYPE":"1","SUMMARY":"平面式臨時路外停車場","ADDRESS":"板橋區大觀路3段160巷31弄5號對面","TEL":"2682-5469","PAYEX":"小型車計時每小時20元;小型車月租每月2500元;","SERVICETIME":"0~24時","TW97X":"293340","TW97Y":"2765057.5","TOTALCAR":"56","TOTALMOTOR":"5","lat":24.992879569398152,"lng":121.42933667507506},{"ID":"10108","AREA":"板橋區","NAME":"浮洲橋下平面停車場","TYPE":"1","SUMMARY":"平面式臨時路外停車場","ADDRESS":"板橋區大觀路3段8之1號後方","TEL":"2682-5469","PAYEX":"小型車計時每小時20元;小型車月租每月2000元;","SERVICETIME":"0~24時","TW97X":"293886.1","TW97Y":"2765341","TOTALCAR":"30","TOTALMOTOR":"0","lat":24.995423336147454,"lng":121.43475535809327},{"ID":"10031","AREA":"板橋區","NAME":"板橋車站地下停車場","TYPE":"1","SUMMARY":"立體式都市計畫停車場","ADDRESS":"新北市板橋區縣民大道二段7號B2、B3","TEL":"8969-2632","PAYEX":"小型車計時每小時40元;小型車計次每次200元;小型車月租每月4000元;機車計時每小時10元;機車計次每次50元;","SERVICETIME":"0~24時","TW97X":"296876.5","TW97Y":"2767444","TOTALCAR":"883","TOTALMOTOR":"256","lat":25.01431987431593,"lng":121.46445024296915},{"ID":"10144","AREA":"板橋區","NAME":"長江停車場","TYPE":"2","SUMMARY":"平面式臨時路外停車場","ADDRESS":"新北市板橋區雙十路3段89號對面空地","TEL":"25235000","PAYEX":"小型車計時每小時60元;小型車月租每月5000元;","SERVICETIME":"0~24時","TW97X":"297383","TW97Y":"2769549","TOTALCAR":"122","TOTALMOTOR":"0","lat":25.033308159394764,"lng":121.4695407873409},{"ID":"10145","AREA":"板橋區","NAME":"忠孝路停車場","TYPE":"2","SUMMARY":"平面式臨時路外停車場","ADDRESS":"新北市板橋區忠孝路218號旁空地","TEL":"89525096","PAYEX":"小型車月租每月3500元;","SERVICETIME":"0~24時","TW97X":"297103.7","TW97Y":"2766175","TOTALCAR":"10","TOTALMOTOR":"0","lat":25.002856203715684,"lng":121.46665797974374},{"ID":"10053","AREA":"板橋區","NAME":"新北市政府體育處板橋場區第一運動場地下停車場","TYPE":"2","SUMMARY":"立體式多目標附建停車場","ADDRESS":"板橋區漢生東路278號","TEL":"22526381","PAYEX":"小型車計時每小時20元;小型車月租每月4000元;","SERVICETIME":"0~24時","TW97X":"297428","TW97Y":"2767061.5","TOTALCAR":"35","TOTALMOTOR":"0","lat":25.010849473427438,"lng":121.46990119479295},{"ID":"10001","AREA":"板橋區","NAME":"莊敬停車場","TYPE":"1","SUMMARY":"立體式-塔臺都市計畫停車場","ADDRESS":"新北市板橋區莊敬路2號","TEL":"2258-1026","PAYEX":"小型車計時每小時20元;小型車計時每小時30元;小型車月租每月3000元;","SERVICETIME":"0~24時","TW97X":"297826","TW97Y":"2769021","TOTALCAR":"280","TOTALMOTOR":"0","lat":25.028527423060638,"lng":121.47391225766101},{"ID":"10149","AREA":"板橋區","NAME":"大漢停車場","TYPE":"1","SUMMARY":"立體式多目標附建停車場","ADDRESS":"新北市板橋區民生路3段119號對面","TEL":"29513569","PAYEX":"小型車計時每小時30元;小型車月租每月3000元;小型車月租每月2400元;身障車月租每月1500元;機車計次每次20元;機車月租每月400元;","SERVICETIME":"0~24時","TW97X":"297089.8","TW97Y":"2768734","TOTALCAR":"323","TOTALMOTOR":"314","lat":25.025959452791128,"lng":121.46660757747462},{"ID":"10036","AREA":"板橋區","NAME":"特專三臨時平面停車場","TYPE":"1","SUMMARY":"平面式臨時路外停車場","ADDRESS":"新北市板橋區漢生東路64號旁空地","TEL":"2255-5419","PAYEX":"小型車計時每小時20元;小型車計時每小時30元;小型車月租每月3000元;機車計次每次10元;機車月租每月150元;大型車計時每小時40元;大型車計時每小時60元;","SERVICETIME":"0~24時","TW97X":"296922","TW97Y":"2767636","TOTALCAR":"271","TOTALMOTOR":"2365","lat":25.01605185421612,"lng":121.46490757038953},{"ID":"10013","AREA":"板橋區","NAME":"市民廣場地下停車場","TYPE":"1","SUMMARY":"立體式都市計畫停車場","ADDRESS":"新北市板橋區縣民大道二段22號B1-B3","TEL":"29643298","PAYEX":"小型車計時每小時30元;小型車月租每月3600元;機車計時每小時10元;機車月租每月200元;","SERVICETIME":"0~24時","TW97X":"296913","TW97Y":"2767352","TOTALCAR":"841","TOTALMOTOR":"1797","lat":25.01348816215267,"lng":121.46480874720008},{"ID":"10151","AREA":"板橋區","NAME":"華江停車場","TYPE":"2","SUMMARY":"平面式臨時路外停車場","ADDRESS":"新北市板橋區長江路3段5-1號後方空地","TEL":"25235000","PAYEX":"小型車計時每小時60元;小型車月租每月5000元;","SERVICETIME":"0~24時","TW97X":"297559.3","TW97Y":"2769669","TOTALCAR":"171","TOTALMOTOR":"0","lat":25.034385993855704,"lng":121.47129192091019},{"ID":"10125","AREA":"板橋區","NAME":"國光1站、國光2站","TYPE":"1","SUMMARY":"平面式臨時路外停車場","ADDRESS":"新北市板橋區國光路與國光路49巷交叉處旁空地","TEL":"966566866","PAYEX":"小型車計時每小時30元;小型車月租每月4000元;","SERVICETIME":"0~24時","TW97X":"296350.7","TW97Y":"2767838","TOTALCAR":"47","TOTALMOTOR":"10","lat":25.017893114682774,"lng":121.4592540044037},{"ID":"10123","AREA":"板橋區","NAME":"市立殯儀館停車場","TYPE":"1","SUMMARY":"平面式多目標附建停車場","ADDRESS":"新北市板橋區中正路560號","TEL":"02-24551299","PAYEX":"小型車計時每小時30元;小型車月租每月3000元;機車免費免費;","SERVICETIME":"0~24時","TW97X":"296079.3","TW97Y":"2769008","TOTALCAR":"70","TOTALMOTOR":"223","lat":25.028464234135075,"lng":121.45660405167617},{"ID":"10024","AREA":"板橋區","NAME":"華東停車場","TYPE":"1","SUMMARY":"平面式臨時路外停車場","ADDRESS":"新北市板橋區南雅南路2段144巷88號對面空地","TEL":"89667646","PAYEX":"小型車月租每月2400元;小型車計時每小時20元;","SERVICETIME":"0~24時","TW97X":"295418","TW97Y":"2765387","TOTALCAR":"238","TOTALMOTOR":"29","lat":24.995793511471344,"lng":121.44993219608696},{"ID":"10155","AREA":"板橋區","NAME":"嘟嘟房板橋中正站停車場","TYPE":"2","SUMMARY":"平面式臨時路外停車場","ADDRESS":"新北市板橋區中正路與新月一街交叉口","TEL":"26550818","PAYEX":"小型車計時每小時50元;小型車月租每月5000元;","SERVICETIME":"0~24時","TW97X":"295850.7","TW97Y":"2768690","TOTALCAR":"52","TOTALMOTOR":"0","lat":25.025600250661082,"lng":121.45432831875628},{"ID":"10011","AREA":"板橋區","NAME":"板橋區重慶公園地下停車場","TYPE":"1","SUMMARY":"立體式多目標附建停車場","ADDRESS":"新北市板橋區重慶路265號B1、B2","TEL":"800608838","PAYEX":"小型車計時每小時30元;小型車月租每月3400元;小型車月租每月2700元;身障車月租每月2500元;機車免費免費;","SERVICETIME":"0~24時","TW97X":"296843.5","TW97Y":"2765846","TOTALCAR":"287","TOTALMOTOR":"30","lat":24.99989402881846,"lng":121.4640690784589},{"ID":"10082","AREA":"板橋區","NAME":"亞東第一停車場","TYPE":"2","SUMMARY":"立體式多目標附建停車場","ADDRESS":"新北市板橋區南雅南路2段25號B1、B2","TEL":"02-77388800","PAYEX":"小型車計時每小時30元;小型車計時每小時10元;小型車月租每月3000元;機車計次每次30元;","SERVICETIME":"0~24時","TW97X":"295673","TW97Y":"2765528","TOTALCAR":"193","TOTALMOTOR":"1228","lat":24.997058813483463,"lng":121.45246294610136},{"ID":"10159","AREA":"板橋區","NAME":"河美停車場","TYPE":"2","SUMMARY":"平面式臨時路外停車場","ADDRESS":"新北市板橋區華江六路鄰近長江路2段溪頭街口對面","TEL":"958122903","PAYEX":"小型車月租每月2700元;","SERVICETIME":"0~24時","TW97X":"297531.5","TW97Y":"2769583","TOTALCAR":"36","TOTALMOTOR":"0","lat":25.03361045621178,"lng":121.47101347777904},{"ID":"10020","AREA":"板橋區","NAME":"新北市萬板大橋停車場","TYPE":"1","SUMMARY":"立體式-機械多目標附建停車場","ADDRESS":"萬板大橋板橋端至14號橋墩下方空間(不含道路、19號橋墩至20號橋墩間龍翠聯合活動中心、20號橋墩至22號橋墩間新北市溪南計程車司機服務中心)","TEL":"2246-1708","PAYEX":"小型車計時每小時20元;小型車計時每小時30元;小型車月租每月3300元;","SERVICETIME":"0~24時","TW97X":"298807","TW97Y":"2768946.5","TOTALCAR":"389","TOTALMOTOR":"179","lat":25.02782352462746,"lng":121.48363017169598},{"ID":"10152","AREA":"板橋區","NAME":"板橋四維公園地下停車場","TYPE":"1","SUMMARY":"立體式多目標附建停車場","ADDRESS":"新北市板橋區陽明街166號1F及B1~B3","TEL":"2246-1708","PAYEX":"小型車計時每小時30元;小型車月租每月4000元;身障車月租每月2000元;機車計次每次10元;機車月租每月300元;","SERVICETIME":"0~24時","TW97X":"296826.9","TW97Y":"2768693","TOTALCAR":"315","TOTALMOTOR":"23","lat":25.025597456746063,"lng":121.46400120623963},{"ID":"10160","AREA":"板橋區","NAME":"宏達經營管理顧問有限公司雙十停車場","TYPE":"2","SUMMARY":"立體式建築附設停車空間","ADDRESS":"新北市板橋區雙十路2段157號B2","TEL":"29869257","PAYEX":"小型車計時每小時50元;小型車月租每月5000元;","SERVICETIME":"0~24時","TW97X":"297872.8","TW97Y":"2768990","TOTALCAR":"95","TOTALMOTOR":"0","lat":25.02824607462627,"lng":121.47437491472726},{"ID":"10164","AREA":"板橋區","NAME":"亞東技術學院第二停車場","TYPE":"2","SUMMARY":"平面式臨時路外停車場","ADDRESS":"新北市板橋區高爾富路亞東醫院旁","TEL":"7738-8800","PAYEX":"小型車計時每小時30元;機車計次每次30元;","SERVICETIME":"0~24時","TW97X":"295831.1","TW97Y":"2765561","TOTALCAR":"36","TOTALMOTOR":"216","lat":24.99735196938754,"lng":121.45403023156447},{"ID":"10103","AREA":"板橋區","NAME":"新北市板橋區華翠橋下A、B、G區停車場","TYPE":"1","SUMMARY":"平面式多目標附建停車場","ADDRESS":"新北市板橋區華翠橋下A、B、G區停車場","TEL":"22526381","PAYEX":"小型車計時每小時20元;小型車計時每小時30元;小型車月租每月2,300元;小型車月租每月2,700元;機車計次每次10元;機車月租每月100元;","SERVICETIME":"0~24時","TW97X":"298768.5","TW97Y":"2768816","TOTALCAR":"149","TOTALMOTOR":"31","lat":25.026646607843972,"lng":121.48324407062877},{"ID":"10104","AREA":"板橋區","NAME":"新北市板橋區華翠橋下H、I、K平面停車場","TYPE":"1","SUMMARY":"立體式-機械多目標附建停車場","ADDRESS":"新北市板橋區華翠橋下(新北市板橋區富山街至太和街間)","TEL":"22526381","PAYEX":"小型車計時每小時30元;小型車計時每小時20元;小型車月租每月2,900元;機車計次每次10元;機車月租每月300元;","SERVICETIME":"0~24時","TW97X":"297825.6","TW97Y":"2768129","TOTALCAR":"132","TOTALMOTOR":"15","lat":25.02047442156001,"lng":121.47387737077409},{"ID":"10163","AREA":"板橋區","NAME":"板橋果菜批發市場第一停車場","TYPE":"2","SUMMARY":"立體式多目標附建停車場","ADDRESS":"新北市板橋區板城路1000號","TEL":"29899201","PAYEX":"小型車計時每小時20元;小型車計時每小時30元;機車計次每次10元;","SERVICETIME":"0~24時","TW97X":"295350.6","TW97Y":"2768177","TOTALCAR":"258","TOTALMOTOR":"399","lat":25.020983910451644,"lng":121.44935615368084},{"ID":"10165","AREA":"板橋區","NAME":"板橋果菜批發市場第二停車場","TYPE":"2","SUMMARY":"平面式都市計畫停車場","ADDRESS":"新北市板橋區板城路1000號對面","TEL":"89651000","PAYEX":"小型車計時每小時20元;小型車月租每月2,700元;小型車月租每月900元;","SERVICETIME":"0~24時","TW97X":"295394","TW97Y":"2768094","TOTALCAR":"187","TOTALMOTOR":"0","lat":25.020233279610594,"lng":121.44978344137955},{"ID":"10037","AREA":"板橋區","NAME":"富山板橋福利站停車場","TYPE":"2","SUMMARY":"平面式建築附設停車空間","ADDRESS":"板橋區文化路一段311-1號","TEL":"22651151","PAYEX":"小型車計時每小時100元;小型車月租每月7000元;機車計次每次50元;","SERVICETIME":"0~24時","TW97X":"296933","TW97Y":"2768152.5","TOTALCAR":"21","TOTALMOTOR":"27","lat":25.020714507275052,"lng":121.46503412239694},{"ID":"10135","AREA":"板橋區","NAME":"潤智停車場","TYPE":"2","SUMMARY":"平面式臨時路外停車場","ADDRESS":"新北市板橋區大觀路3段50巷52號旁空地","TEL":"22316406","PAYEX":"小型車計時每小時30元;小型車月租每月4000元;","SERVICETIME":"0~24時","TW97X":"293681.5","TW97Y":"2765405","TOTALCAR":"143","TOTALMOTOR":"29","lat":24.996007045155753,"lng":121.43273056774869},{"ID":"10154","AREA":"板橋區","NAME":"臺65高架橋下板橋端停車場","TYPE":"1","SUMMARY":"平面式多目標附建停車場","ADDRESS":"新北市板橋區四汴頭抽水站對面","TEL":"27995657","PAYEX":"小型車計時每小時20元;小型車月租每月3000元;","SERVICETIME":"0~24時","TW97X":"295090.5","TW97Y":"2767951","TOTALCAR":"68","TOTALMOTOR":"49","lat":25.018951330783143,"lng":121.44677163112127},{"ID":"10010","AREA":"板橋區","NAME":"新埔停車場","TYPE":"1","SUMMARY":"立體式-塔臺都市計畫停車場","ADDRESS":"板橋區英士路199號","TEL":",2258-1641","PAYEX":"小型車計時每小時20元;小型車計時每小時30元;小型車月租每月3300元;","SERVICETIME":"0~24時","TW97X":"296237","TW97Y":"2768491","TOTALCAR":"280","TOTALMOTOR":"0","lat":25.0237919181187,"lng":121.45814934712469},{"ID":"10166","AREA":"板橋區","NAME":"普廣停車場","TYPE":"2","SUMMARY":"平面式臨時路外停車場","ADDRESS":"新北市板橋區民生路3段323號左邊77公尺處","TEL":"976385250","PAYEX":"小型車月租每月2500元;","SERVICETIME":"0~24時","TW97X":"296712.4","TW97Y":"2769411","TOTALCAR":"29","TOTALMOTOR":"0","lat":25.032083134922626,"lng":121.46289098840573},{"ID":"10131","AREA":"板橋區","NAME":"新北市立圖書館地下停車場","TYPE":"1","SUMMARY":"立體式建築附設停車空間","ADDRESS":"新北市板橋區貴興路139號B1~B3","TEL":"29645836","PAYEX":"小型車計時每小時30元;小型車月租每月4000元;小型車月租每月2000元;機車計次每次10元;機車月租每月200元;","SERVICETIME":"0~24時","TW97X":"295902.8","TW97Y":"2766068","TOTALCAR":"228","TOTALMOTOR":"278","lat":25.00192704545543,"lng":121.45475736429552},{"ID":"10122","AREA":"板橋區","NAME":"便利停車場新巨蛋站","TYPE":"2","SUMMARY":"立體式建築附設停車空間","ADDRESS":"新北市板橋區文化路一段360號B2","TEL":"2799-1001","PAYEX":"小型車計時每小時50元;小型車月租每月6000元;機車計時每次10元;機車月租每月1500元;","SERVICETIME":"0~24時","TW97X":"297305.7","TW97Y":"2768480","TOTALCAR":"54","TOTALMOTOR":"100","lat":25.02365959778012,"lng":121.4687381404037},{"ID":"10109","AREA":"板橋區","NAME":"便利停車場板橋站","TYPE":"2","SUMMARY":"立體式建築附設停車空間","ADDRESS":"新北市板橋區南門街61號B2-B3","TEL":"89698237","PAYEX":"小型車計時每小時50元;小型車月租每月5000元;","SERVICETIME":"0~24時","TW97X":"296159.1","TW97Y":"2766789","TOTALCAR":"37","TOTALMOTOR":"0","lat":25.008428512603874,"lng":121.45732055497744},{"ID":"10126","AREA":"板橋區","NAME":"亞東醫院停車場","TYPE":"2","SUMMARY":"立體式建築附設停車空間","ADDRESS":"新北市板橋區高爾富路300號1F~3F及B2-B4","TEL":"8967-5872","PAYEX":"小型車計時每小時100元;小型車月租每月6000元;機車計次每次60元;機車月租每月800元;","SERVICETIME":"0~24時","TW97X":"295756.3","TW97Y":"2765843","TOTALCAR":"440","TOTALMOTOR":"839","lat":24.999900153282518,"lng":121.45329857663059},{"ID":"10168","AREA":"板橋區","NAME":"都匯中心地下停車場","TYPE":"2","SUMMARY":"立體式建築附設停車空間","ADDRESS":"新北市板橋區中山路2段443巷77號B2、B3","TEL":"89534738","PAYEX":"小型車計時每小時30元;小型車月租每月4000元;","SERVICETIME":"0~24時","TW97X":"298524.4","TW97Y":"2768399","TOTALCAR":"83","TOTALMOTOR":"0","lat":25.022889761430424,"lng":121.48081069808188},{"ID":"10051","AREA":"板橋區","NAME":"新北市政府體育處板橋場區體育館平面停車場","TYPE":"2","SUMMARY":"立體式多目標附建停車場","ADDRESS":"板橋區中正路8號","TEL":"8965-8094","PAYEX":"機車月租1000元;機車計時每小時20元;機車計次每次50元;","SERVICETIME":"0~24時","TW97X":"296093","TW97Y":"2767388","TOTALCAR":"87","TOTALMOTOR":"0","lat":25.013838345427583,"lng":121.45668568582609},{"ID":"10167","AREA":"板橋區","NAME":"龍山寺板橋文化廣場停車場","TYPE":"2","SUMMARY":"立體式建築附設停車空間","ADDRESS":"新北市板橋區文化路2段242號B1~B3","TEL":"82520103","PAYEX":"小型車月租每月6000元;小型車月租每月5000元;","SERVICETIME":"0~24時","TW97X":"297520.9","TW97Y":"2768948","TOTALCAR":"91","TOTALMOTOR":"0","lat":25.027877984257785,"lng":121.47088655895278},{"ID":"10169","AREA":"板橋區","NAME":"嘟嘟房板橋長江站停車場","TYPE":"2","SUMMARY":"平面式臨時路外停車場","ADDRESS":"新北市板橋區環河西路4段與長江路1段150巷週邊空地","TEL":"26550818","PAYEX":"小型車計時每小時50元;小型車月租每月5000元;","SERVICETIME":"0~24時","TW97X":"296281.6","TW97Y":"2769221","TOTALCAR":"30","TOTALMOTOR":"0","lat":25.030381038817424,"lng":121.4586157584168},{"ID":"10170","AREA":"板橋區","NAME":"江翠站停車場","TYPE":"2","SUMMARY":"平面式臨時路外停車場","ADDRESS":"新北市板橋區雙十路3段89號右前方80公尺","TEL":"966566866","PAYEX":"小型車計時每小時40元;小型車月租每月6000元;","SERVICETIME":"0~24時","TW97X":"297442.9","TW97Y":"2769628","TOTALCAR":"50","TOTALMOTOR":"0","lat":25.034019497797583,"lng":121.47013706751227},{"ID":"10085","AREA":"板橋區","NAME":"板橋國小地下停車場","TYPE":"1","SUMMARY":"立體式多目標附建停車場","ADDRESS":"板橋區文化路一段23號B1~B3","TEL":"89698938","PAYEX":"小型車計時每小時30元;小型車月租每月3800元;","SERVICETIME":"0~24時","TW97X":"296238.5","TW97Y":"2767099.5","TOTALCAR":"224","TOTALMOTOR":"0","lat":25.01122931078876,"lng":121.45811758834034},{"ID":"10171","AREA":"板橋區","NAME":"新板大樓停車場","TYPE":"2","SUMMARY":"立體式建築附設停車空間","ADDRESS":"新北市板橋區中山路1段141號B3、B4","TEL":"29648288","PAYEX":"小型車計時每小時100元;小型車月租每月1萬元;","SERVICETIME":"0~24時","TW97X":"296812.3","TW97Y":"2767093","TOTALCAR":"89","TOTALMOTOR":"0","lat":25.011153007072714,"lng":121.46380226570218},{"ID":"10161","AREA":"板橋區","NAME":"助安168板橋長江停車場","TYPE":"2","SUMMARY":"平面式臨時路外停車場","ADDRESS":"新北市板橋區溪頭街160號對面空地","TEL":"27546661","PAYEX":"小型車計時每小時60元;小型車月租每月6000元;","SERVICETIME":"0~24時","TW97X":"296465.8","TW97Y":"2769266","TOTALCAR":"147","TOTALMOTOR":"0","lat":25.03078165799845,"lng":121.46044251146346},{"ID":"10172","AREA":"板橋區","NAME":"翠濱收費停車場","TYPE":"2","SUMMARY":"平面式臨時路外停車場","ADDRESS":"新北市板橋區環河西路4段與華江九路及華江八路交叉口旁空地","TEL":"22596656","PAYEX":"小型車計時每小時20元;小型車月租每月2500元;","SERVICETIME":"0~24時","TW97X":"297032.8","TW97Y":"2769615","TOTALCAR":"203","TOTALMOTOR":"0","lat":25.033914933404752,"lng":121.4660728300192},{"ID":"10110","AREA":"板橋區","NAME":"板橋高中地下停車場","TYPE":"1","SUMMARY":"立體式多目標附建停車場","ADDRESS":"新北市板橋區文化路1段25號B1","TEL":"800608838","PAYEX":"小型車計時每小時30元;小型車月租每月4000元;身障車月租每月2000元;","SERVICETIME":"0~24時","TW97X":"296379.7","TW97Y":"2767196","TOTALCAR":"229","TOTALMOTOR":"0","lat":25.012096204149888,"lng":121.4595197635427},{"ID":"10033","AREA":"板橋區","NAME":"英士路平面停車場","TYPE":"1","SUMMARY":"平面式臨時路外停車場","ADDRESS":"新北市板橋區新海路135巷口","TEL":"800608838","PAYEX":"小型車計時每小時30元;小型車月租每月4000元;身障車月租每月3000元;","SERVICETIME":"0~24時","TW97X":"296442","TW97Y":"2768515.5","TOTALCAR":"23","TOTALMOTOR":"0","lat":25.02400683169897,"lng":121.46018140748005},{"ID":"10043","AREA":"板橋區","NAME":"國慶平面停車場","TYPE":"1","SUMMARY":"平面式都市計畫停車場","ADDRESS":"新北市板橋區重慶路277、279號對面","TEL":"800608838","PAYEX":"小型車計時每小時30元;小型車月租每月2800元;身障車月租每月2000元;","SERVICETIME":"0~24時","TW97X":"296764","TW97Y":"2765819","TOTALCAR":"36","TOTALMOTOR":"0","lat":24.99965272525095,"lng":121.46328059425646},{"ID":"10173","AREA":"板橋區","NAME":"板橋浮洲合宜住宅A3區地下停車場","TYPE":"2","SUMMARY":"立體式建築附設停車空間","ADDRESS":"新北市板橋區合宜路69號B1、B2","TEL":"27546661","PAYEX":"小型車計時每小時40元;小型車月租每月4000元;","SERVICETIME":"0~24時","TW97X":"294782","TW97Y":"2765519","TOTALCAR":"184","TOTALMOTOR":"0","lat":24.99700414246529,"lng":121.44363610707376},{"ID":"10174","AREA":"板橋區","NAME":"江翠國小地下停車場","TYPE":"1","SUMMARY":"","ADDRESS":"新北市板橋區文化路2段413號B1、B2","TEL":"77177177","PAYEX":"小型車計時每小時30元;小型車計時每小時20元;小型車月租每月4000元;機車計次每次10元;機車月租每月300元;","SERVICETIME":"0~24時","TW97X":"297816.9","TW97Y":"2769555","TOTALCAR":"261","TOTALMOTOR":"86","lat":25.033348681229075,"lng":121.4738406027747},{"ID":"10175","AREA":"板橋區","NAME":"板橋停四平面停車場","TYPE":"1","SUMMARY":"平面式都市計畫停車場","ADDRESS":"新北市板橋區藝文一街及板城路交叉口","TEL":"22461708","PAYEX":"小型車計時每小時20元;小型車計時每小時30元;小型車月租每月3000元;","SERVICETIME":"0~24時","TW97X":"295497.1","TW97Y":"2768429","TOTALCAR":"56","TOTALMOTOR":"0","lat":25.023254590978304,"lng":121.45081602261918},{"ID":"10177","AREA":"板橋區","NAME":"嘟嘟房板橋巨蛋站停車場","TYPE":"2","SUMMARY":"平面式臨時路外停車場","ADDRESS":"新北市板橋區環河西路及大漢街旁空地","TEL":"26550818","PAYEX":"小型車計時每小時50元;小型車月租每月5000元;","SERVICETIME":"0~24時","TW97X":"296598.7","TW97Y":"2769331","TOTALCAR":"197","TOTALMOTOR":"0","lat":25.031364395729884,"lng":121.46176161723945},{"ID":"10178","AREA":"板橋區","NAME":"領袖天下停車場","TYPE":"2","SUMMARY":"立體式建築附設停車空間","ADDRESS":"新北市板橋區四川路2段16巷1號B1、B2","TEL":"89661305","PAYEX":"身障車計時每小時30元;機車計次每次25元;","SERVICETIME":"0~24時","TW97X":"296023.1","TW97Y":"2765450","TOTALCAR":"307","TOTALMOTOR":"574","lat":24.99634403356899,"lng":121.45592855336854},{"ID":"10180","AREA":"板橋區","NAME":"Times 板橋忠孝路停車場","TYPE":"2","SUMMARY":"平面式臨時路外停車場","ADDRESS":"新北市板橋區忠孝路263號對面","TEL":"800888924","PAYEX":"小型車計時每小時80元;小型車月租每月8000元;","SERVICETIME":"0~24時","TW97X":"297196.3","TW97Y":"2766188","TOTALCAR":"92","TOTALMOTOR":"0","lat":25.002970687915624,"lng":121.46757579138789},{"ID":"10029","AREA":"板橋區","NAME":"新北市板橋區新海抽水站平面停車場","TYPE":"1","SUMMARY":"平面式臨時路外停車場","ADDRESS":"新北市板橋區中正路511號","TEL":"24551299","PAYEX":"小型車計時每小時20元;小型車計時每小時30元;大型車計時每小時40元;大型車計時每小時60元;小型車月租每月3000元;大型車月租每月6000元;","SERVICETIME":"0~24時","TW97X":"295954","TW97Y":"2768975.5","TOTALCAR":"34","TOTALMOTOR":"10","lat":25.028174630956688,"lng":121.45536139041084},{"ID":"10052","AREA":"板橋區","NAME":"新北市政府體育處板橋場區西門停車場","TYPE":"2","SUMMARY":"平面式多目標附建停車場","ADDRESS":"新北市板橋區漢生東路278號","TEL":"2955-8560","PAYEX":"小型車計時每小時20元;小型車月租每月4000元;","SERVICETIME":"0~24時","TW97X":"297150","TW97Y":"2767007.5","TOTALCAR":"58","TOTALMOTOR":"0","lat":25.01037063501161,"lng":121.46714508916251},{"ID":"10093","AREA":"板橋區","NAME":"東方富域停車場","TYPE":"2","SUMMARY":"立體式建築附設停車空間","ADDRESS":"新北市板橋區縣民大道二段78號B7及B8","TEL":"2964-7323","PAYEX":"小型車計時每小時80元;小型車月租每月6000元;","SERVICETIME":"0~24時","TW97X":"297019.5","TW97Y":"2767491.5","TOTALCAR":"184","TOTALMOTOR":"0","lat":25.01474427541385,"lng":121.4658686618383},{"ID":"10140","AREA":"板橋區","NAME":"板橋江翠水岸停一停車場","TYPE":"1","SUMMARY":"平面式都市計畫停車場","ADDRESS":"新北市板橋區溪頭公園旁","TEL":"24551299","PAYEX":"小型車計時每小時30元;小型車月租每月3500元;","SERVICETIME":"0~24時","TW97X":"297076","TW97Y":"2769461","TOTALCAR":"25","TOTALMOTOR":"0","lat":25.03252327184532,"lng":121.46649565289687},{"ID":"10139","AREA":"板橋區","NAME":"板橋江翠水岸停二停車場","TYPE":"1","SUMMARY":"平面式都市計畫停車場","ADDRESS":"新北市板橋區華江一路與華江五路交叉口","TEL":"24551299","PAYEX":"小型車計時每小時30元;小型車月租每月3300元;","SERVICETIME":"0~24時","TW97X":"297672.3","TW97Y":"2769719","TOTALCAR":"43","TOTALMOTOR":"5","lat":25.03483384021558,"lng":121.47241340049524},{"ID":"10044","AREA":"板橋區","NAME":"捷運江子翠轉乘停車場","TYPE":"1","SUMMARY":"平面式多目標附建停車場","ADDRESS":"新北市板橋區文化路二段296號","TEL":"22461708","PAYEX":"小型車月租每月3000元;機車計次每次20元;機車月租每月300元;","SERVICETIME":"0~24時","TW97X":"297740.5","TW97Y":"2769296.5","TOTALCAR":"26","TOTALMOTOR":"126","lat":25.03101734615773,"lng":121.47307458955149},{"ID":"10116","AREA":"板橋區","NAME":"捷運府中站轉乘停車場","TYPE":"2","SUMMARY":"平面式多目標附建停車場","ADDRESS":"新北市板橋區縣民大道一段193號","TEL":"22461708","PAYEX":"機車計次每次30元;機車月租每月300元;","SERVICETIME":"0~24時","TW97X":"296301.3","TW97Y":"2766756","TOTALCAR":"0","TOTALMOTOR":"575","lat":25.008126247230326,"lng":121.45872825720294},{"ID":"10050","AREA":"板橋區","NAME":"新北市立江翠國民中學學生活動中心地下停車場","TYPE":"2","SUMMARY":"立體式多目標附建停車場","ADDRESS":"新北市板橋區松江街63號江翠國中活動中心B1","TEL":"22500125","PAYEX":"小型車計時每小時20元;小型車月租每月4000元;","SERVICETIME":"0~24時","TW97X":"297303.5","TW97Y":"2769047","TOTALCAR":"49","TOTALMOTOR":"0","lat":25.028778569385512,"lng":121.46873578548224},{"ID":"10040","AREA":"板橋區","NAME":"正隆公園地下停車場","TYPE":"2","SUMMARY":"立體式多目標附建停車場","ADDRESS":"板橋區民生路一段26-1號B1、B2","TEL":"2951-3569","PAYEX":"小型車計時每小時30元;小型車計時每小時20元;小型車月租每月4000元;身障車月租每月2500元;","SERVICETIME":"0~24時","TW97X":"298161","TW97Y":"2767203","TOTALCAR":"275","TOTALMOTOR":"0","lat":25.012103819268614,"lng":121.4771682603192},{"ID":"10042","AREA":"板橋區","NAME":"新北市藝文中心平面停車場","TYPE":"2","SUMMARY":"平面式多目標附建停車場","ADDRESS":"新北市板橋區莊敬路62號","TEL":"22541503","PAYEX":"小型車計時每小時30元;","SERVICETIME":"0~24時","TW97X":"297652.5","TW97Y":"2768767.5","TOTALCAR":"80","TOTALMOTOR":"0","lat":25.02624428598714,"lng":121.47218431834325},{"ID":"10042","AREA":"板橋區","NAME":"新北市藝文中心平面停車場","TYPE":"2","SUMMARY":"平面式建築附設停車空間","ADDRESS":"新北市板橋區莊敬路62號","TEL":"978998140","PAYEX":"","SERVICETIME":"0~24時","TW97X":"297652.5","TW97Y":"2768767.5","TOTALCAR":"","TOTALMOTOR":"","lat":25.02624428598714,"lng":121.47218431834325},{"ID":"10042","AREA":"板橋區","NAME":"新北市藝文中心平面停車場","TYPE":"2","SUMMARY":"立體式建築附設停車空間","ADDRESS":"新北市板橋區莊敬路62號","TEL":"978998140","PAYEX":"小型車計時每小時30元;","SERVICETIME":"0~24時","TW97X":"297652.5","TW97Y":"2768767.5","TOTALCAR":"80","TOTALMOTOR":"0","lat":25.02624428598714,"lng":121.47218431834325},{"ID":"10124","AREA":"板橋區","NAME":"新北市政府江翠停五停車場","TYPE":"2","SUMMARY":"平面式臨時路外停車場","ADDRESS":"新北市板橋區中正路560號","TEL":"02-24551299","PAYEX":"小型車計時每小時30元;小型車月租每月3000元;機車免費免費;","SERVICETIME":"0~24時","TW97X":"296005.3","TW97Y":"2768957","TOTALCAR":"392","TOTALMOTOR":"80","lat":25.02800605368989,"lng":121.45586909599152},{"ID":"10070","AREA":"板橋區","NAME":"三民地下停車場","TYPE":"2","SUMMARY":"立體式建築附設停車空間","ADDRESS":"新北市板橋區三民路1段210及212號B5及B6","TEL":"89859111","PAYEX":"小型車計時每小時60元;小型車月租每月5000元;","SERVICETIME":"0~24時","TW97X":"297441.5","TW97Y":"2767392.5","TOTALCAR":"50","TOTALMOTOR":"0","lat":25.013837339450795,"lng":121.47004632021753},{"ID":"10182","AREA":"板橋區","NAME":"新都41停車場","TYPE":"2","SUMMARY":"平面式臨時路外停車場","ADDRESS":"新北市板橋區溪頭街與大漢街交叉口處","TEL":"919218244","PAYEX":"小型車計時每小時20元;小型車月租每月2000元;","SERVICETIME":"0~24時","TW97X":"296572.8103","TW97Y":"2769299.853","TOTALCAR":"13","TOTALMOTOR":"0","lat":25.031083995863003,"lng":121.46150402247517},{"ID":"10045","AREA":"板橋區","NAME":"聖若望平面停車場","TYPE":"1","SUMMARY":"平面式臨時路外停車場","ADDRESS":"新北市板橋區南雅西路2段7巷底","TEL":"800608838","PAYEX":"小型車計時每小時30元;小型車月租每月2700元;身障車月租每月2000元;","SERVICETIME":"0~24時","TW97X":"295609","TW97Y":"2766912","TOTALCAR":"77","TOTALMOTOR":"0","lat":25.009555626096997,"lng":121.45187464499945},{"ID":"10038","AREA":"板橋區","NAME":"南雅西路環河平面停車場","TYPE":"1","SUMMARY":"平面式臨時路外停車場","ADDRESS":"新北市板橋區南雅西路2段175巷口","TEL":"800608838","PAYEX":"小型車計時每小時30元;小型車月租每月2700元;身障車月租每月2000元;","SERVICETIME":"0~24時","TW97X":"295556","TW97Y":"2767303.5","TOTALCAR":"20","TOTALMOTOR":"0","lat":25.01309171688655,"lng":121.4513624753833},{"ID":"10014","AREA":"板橋區","NAME":"民生公園地下停車場","TYPE":"1","SUMMARY":"立體式多目標附建停車場","ADDRESS":"板橋區民生路一段30號B1","TEL":"2955-6239","PAYEX":"小型車計時每小時30元;小型車月租每月3600元;","SERVICETIME":"0~24時","TW97X":"298073.5","TW97Y":"2767359","TOTALCAR":"164","TOTALMOTOR":"0","lat":25.01351497480755,"lng":121.47630678648211},{"ID":"10009","AREA":"板橋區","NAME":"民權立體停車場","TYPE":"1","SUMMARY":"立體式都市計畫停車場","ADDRESS":"新北市板橋區民權路89號","TEL":"8969-8326","PAYEX":"小型車計時每小時30元;小型車月租每月3600元;","SERVICETIME":"0~24時","TW97X":"296477","TW97Y":"2767184","TOTALCAR":"154","TOTALMOTOR":"0","lat":25.011984885304464,"lng":121.46048336187485},{"ID":"10146","AREA":"板橋區","NAME":"江翠國中游泳池共構地下停車場","TYPE":"1","SUMMARY":"立體式多目標附建停車場","ADDRESS":"新北市板橋區松江街63號B2~B4","TEL":"22461708","PAYEX":"小型車計時每小時20元;小型車計時每小時30元;小型車月租每月4000元;","SERVICETIME":"0~24時","TW97X":"297282.8","TW97Y":"2768934","TOTALCAR":"220","TOTALMOTOR":"0","lat":25.027759046978286,"lng":121.46852679846573},{"ID":"10034","AREA":"板橋區","NAME":"新店溪華江堤外區停車場","TYPE":"2","SUMMARY":"平面式臨時路外停車場","ADDRESS":"板橋區華翠水門進入左轉至華江橋間及華翠水門進入右轉至光復水門間","TEL":"29620020","PAYEX":"小型車計時每小時20元;大型車計時每小時40元;小型車月租每月4000元;大型車月租每月8000元;機車免費免費;","SERVICETIME":"0~24時","TW97X":"298625","TW97Y":"2769710.5","TOTALCAR":"523","TOTALMOTOR":"334","lat":25.034726791721713,"lng":121.48185371631232},{"ID":"10183","AREA":"板橋區","NAME":"板橋凱撒大飯店停車場","TYPE":"2","SUMMARY":"平面式建築附設停車空間","ADDRESS":"新北市板橋區縣民大道2段8號B1~B5","TEL":"89515090","PAYEX":"小型車計時每小時100元;小型車月租每月5000元;機車計時每小時60元;","SERVICETIME":"汽車24小時，機車當日4時至隔日凌晨1時","TW97X":"296667.5009","TW97Y":"2767103.249","TOTALCAR":"688","TOTALMOTOR":"719","lat":25.011250003030973,"lng":121.46236802275521},{"ID":"10186","AREA":"板橋區","NAME":"板橋雙十廣場停車場","TYPE":"2","SUMMARY":"平面式臨時路外停車場","ADDRESS":"新北市板橋區文化路2段182巷7弄","TEL":"","PAYEX":";","SERVICETIME":"0~24時","TW97X":"297688.7176","TW97Y":"2768965.312","TOTALCAR":"109","TOTALMOTOR":"0","lat":25.028029000509555,"lng":121.47255002465535},{"ID":"10002","AREA":"板橋區","NAME":"廣福公園平面停車場","TYPE":"2","SUMMARY":"平面式臨時路外停車場","ADDRESS":"板橋區五權公園大門左右兩側","TEL":"","PAYEX":";","SERVICETIME":"0~24時","TW97X":"296809","TW97Y":"2764971.5","TOTALCAR":"97","TOTALMOTOR":"0","lat":24.992000029377923,"lng":121.46369767584405},{"ID":"10003","AREA":"板橋區","NAME":"國光公園平面停車場","TYPE":"2","SUMMARY":"平面式多目標附建停車場","ADDRESS":"板橋區中正路375巷48號左右兩旁","TEL":"","PAYEX":";","SERVICETIME":"0~24時","TW97X":"295752","TW97Y":"2768162.5","TOTALCAR":"48","TOTALMOTOR":"0","lat":25.020840929232815,"lng":121.45333284501606},{"ID":"20009","AREA":"板橋區","NAME":"板橋玫瑰中正","TYPE":"1","SUMMARY":"平面式臨時路外停車場","ADDRESS":"板橋區中正路板橋國中對面","TEL":"","PAYEX":";","SERVICETIME":"0~24時","TW97X":"299338","TW97Y":"2771898","TOTALCAR":"32","TOTALMOTOR":"0","lat":25.054452461585782,"lng":121.48899736909374},{"ID":"10102","AREA":"板橋區","NAME":"板橋玫瑰綠堤","TYPE":"2","SUMMARY":"平面式臨時路外停車場","ADDRESS":"板橋區綠堤街與龍泉街54巷7弄(板橋區綠堤街與龍泉街82巷口)","TEL":"","PAYEX":";","SERVICETIME":"0~24時","TW97X":"295867","TW97Y":"2768632","TOTALCAR":"14","TOTALMOTOR":"0","lat":25.025076129077476,"lng":121.45448790077862},{"ID":"10038","AREA":"板橋區","NAME":"板橋環河(南雅西路環河平面停車場)","TYPE":"1","SUMMARY":"","ADDRESS":"館前西路160巷板城路口","TEL":"","PAYEX":";","SERVICETIME":"0~24時","TW97X":"295556","TW97Y":"2767303.5","TOTALCAR":"22","TOTALMOTOR":"0","lat":25.01309171688655,"lng":121.4513624753833},{"ID":"10022","AREA":"板橋區","NAME":"板橋華翠橋下(機車區)","TYPE":"1","SUMMARY":"","ADDRESS":"市民大道1段太和街口至3段","TEL":"","PAYEX":";","SERVICETIME":"0~24時","TW97X":"297941","TW97Y":"2768215","TOTALCAR":"0","TOTALMOTOR":"0","lat":25.021247184625476,"lng":121.47502376259436},{"ID":"10022","AREA":"板橋區","NAME":"台65高架橋下停車場","TYPE":"1","SUMMARY":"","ADDRESS":"湳仔溝沿岸","TEL":"","PAYEX":";","SERVICETIME":"0~24時","TW97X":"295099","TW97Y":"2767925","TOTALCAR":"0","TOTALMOTOR":"0","lat":25.01871634750344,"lng":121.44685500021824}]